Speed,GyroScop_x,GyroScop_y,GyroScop_z,attitude_pitch,attitude_roll,attitude_yaw,acceleration_x,acceleration_y,acceleration_z,G_x_avg,G_y_avg,A_x_avg,A_y_avg,A_z_avg,marker,trip_id,holizontalAccuracy,verticalAccuracy,altitude,longitude,latitude,timestamp,p_marker,Line Group (Path ID),Order of Points,combined_marker
-3.6,-0.251377671957016,0.361805707216263,0.0414214059710503,1.33308043323342,-0.755546862978847,0.606830603419405,0.0923760458827019,0.0373385846614838,-0.125131741166115,0.0,0.0,0.0,0.0,0.0,normal,2017-05-23  09:12:59.885+0000,65.0,10.3695649767778,898.227294921875,77.6388681015204,12.9536860244853,1495530780.346,normal,0,0,normal
-3.6,0.589371919631958,0.721132695674896,0.382440686225891,1.35110280732014,-0.958268003697557,0.842620205482378,0.279216468334198,-0.104846261441708,-0.32079416513443,0.0,0.0,0.0,0.0,0.0,normal,2017-05-23  09:12:59.885+0000,65.0,11.2497324593839,897.858642578125,77.6387703530414,12.9536043945045,1495530780.439,normal,1,1,normal
-3.6,-0.135630026459694,0.373866319656372,0.332546025514603,1.35069410823282,-1.19780564103856,1.13604771901634,0.328653126955032,0.0427849255502224,-0.0735164880752563,0.0,0.0,0.0,0.0,0.0,normal,2017-05-23  09:12:59.885+0000,65.0,11.2497324593839,897.858642578125,77.6387703530414,12.9536043945045,1495530780.526,normal,2,2,normal
-3.6,0.204778149724007,0.516210317611694,0.0496047213673592,1.33544711164198,-1.07185581113497,1.04274078661843,-0.0433373488485813,0.00411021569743752,0.0557296462357044,0.0,0.0,0.0,0.0,0.0,normal,2017-05-23  09:12:59.885+0000,65.0,11.2497324593839,897.858642578125,77.6387703530414,12.9536043945045,1495530780.625,normal,3,3,normal
-3.6,-0.386766642332077,0.0597127005457878,-0.170845955610275,1.31252219720707,-0.911415261071469,0.930907975502639,0.0558134950697422,0.0473070815205574,-0.0043244450353086,0.0,0.0,0.0,0.0,0.0,normal,2017-05-23  09:12:59.885+0000,65.0,11.2497324593839,897.858642578125,77.6387703530414,12.9536043945045,1495530780.723,normal,4,4,normal
-3.6,-0.531524777412415,0.130857676267624,-0.0444609820842743,1.27618367416772,-0.816669066914329,0.870115620444128,0.323137193918228,-0.164438456296921,-0.0958451181650162,0.0,0.0,0.0,0.0,0.0,normal,2017-05-23  09:12:59.885+0000,65.0,11.2497324593839,897.858642578125,77.6387703530414,12.9536043945045,1495530780.81,normal,5,5,normal
-3.6,0.15467144548893,0.497281849384308,-0.00323747517541051,1.26083873438134,-0.780542026713239,0.856357036431511,0.348511189222336,-0.235229790210724,-0.365687429904938,0.0,0.0,0.0,0.0,0.0,normal,2017-05-23  09:12:59.885+0000,65.0,11.2497324593839,897.858642578125,77.6387703530414,12.9536043945045,1495530780.897,normal,6,6,normal
-3.6,1.07990682125092,0.553293108940125,0.278564602136612,1.28507983066046,-0.866550117092803,0.972254350948291,0.340953677892685,-0.2236607670784,-0.257030934095383,0.0,0.0,0.0,0.0,0.0,normal,2017-05-23  09:12:59.885+0000,65.0,11.2497324593839,897.858642578125,77.6387703530414,12.9536043945045,1495530780.996,normal,7,7,normal
-3.6,0.189439833164215,-0.0882585048675537,-0.035005658864975,1.30617436788554,-0.985890136398629,1.13115547793622,0.134295523166656,0.134258821606636,0.0319927036762238,0.0,0.0,0.0,0.0,0.0,normal,2017-05-23  09:12:59.885+0000,65.0,11.2497324593839,897.858642578125,77.6387703530414,12.9536043945045,1495530781.083,normal,8,8,normal
-3.6,0.0146105699241161,-0.0638695955276489,-0.075713075697422,1.31766193914838,-1.03716134063251,1.20205674871338,0.165540143847466,0.117103762924671,-0.0823723450303078,0.0,0.0,0.0,0.0,0.0,normal,2017-05-23  09:12:59.885+0000,65.0,11.2497324593839,897.858642578125,77.6387703530414,12.9536043945045,1495530781.181,normal,9,9,normal
-3.6,0.0416731722652912,0.168401956558228,0.101993687450886,1.30271009818655,-0.959819864954021,1.12775006068333,0.230362638831139,-0.178771555423737,-0.133321523666382,0.0,0.0,0.0,0.0,0.0,normal,2017-05-23  09:12:59.885+0000,65.0,11.2497324593839,897.858642578125,77.6387703530414,12.9536043945045,1495530781.268,normal,10,10,normal
-3.6,0.326521873474121,0.242927849292755,-0.172025591135025,1.30340370835758,-1.02582746024966,1.20796649444392,0.223594099283218,-0.155654102563858,-0.173288807272911,0.0,0.0,0.0,0.0,0.0,normal,2017-05-23  09:12:59.885+0000,65.0,11.2497324593839,897.858642578125,77.6387703530414,12.9536043945045,1495530781.367,normal,11,11,normal
-3.6,0.0278840195387602,0.287681370973587,0.0293435975909233,1.32169379647249,-1.13983487287235,1.35339333236927,0.2464379966259,0.0901057496666908,-0.0996025875210762,0.0,0.0,0.0,0.0,0.0,normal,2017-05-23  09:12:59.885+0000,65.0,11.2497324593839,897.858642578125,77.6387703530414,12.9536043945045,1495530781.453,normal,12,12,normal
-3.6,-0.220061898231506,0.374398827552795,-0.0508864708244801,1.32576510481012,-1.02691310911453,1.26464492744237,0.0366690568625927,0.086844228208065,0.159755006432533,0.0,0.0,0.0,0.0,0.0,normal,2017-05-23  09:12:59.885+0000,65.0,11.2497324593839,897.858642578125,77.6387703530414,12.9536043945045,1495530781.551,normal,13,13,normal
-3.6,-0.00250128516927361,0.21005854010582,0.145072981715202,1.30275344402641,-0.935581475453559,1.19272132493885,0.192387491464615,-0.115726016461849,0.00561070209369063,0.0,0.0,0.0,0.0,0.0,normal,2017-05-23  09:12:59.885+0000,65.0,11.2497324593839,897.858642578125,77.6387703530414,12.9536043945045,1495530781.638,normal,14,14,normal
-3.6,-0.0577701665461063,0.190336912870407,-0.202811703085899,1.29409886639621,-0.867647986254865,1.14415209423624,0.0726119503378868,-0.145993068814278,-0.14421734213829,0.0,0.0,0.0,0.0,0.0,normal,2017-05-23  09:12:59.885+0000,65.0,11.2497324593839,897.858642578125,77.6387703530414,12.9536043945045,1495530781.737,normal,15,15,normal
-3.6,0.0798114612698555,0.355800360441208,-0.410909712314606,1.33021276398981,-0.801607960759795,1.10878217407844,0.0473046191036701,-0.090537965297699,0.0338929146528244,0.0,0.0,0.0,0.0,0.0,normal,2017-05-23  09:12:59.885+0000,65.0,11.2497324593839,897.858642578125,77.6387703530414,12.9536043945045,1495530781.833,normal,16,16,normal
-3.6,0.156080037355423,0.36339670419693,-0.1822350025177,1.36612395301784,-0.755167875011299,1.09647968585341,0.140619546175003,0.0464494042098522,0.0237886290997267,0.0,0.0,0.0,0.0,0.0,normal,2017-05-23  09:12:59.885+0000,65.0,11.2497324593839,897.858642578125,77.6387703530414,12.9536043945045,1495530781.922,normal,17,17,normal
-3.6,-0.138497233390808,0.0912031978368759,-0.0427966751158237,1.37517353403458,-0.701104882006556,1.06259987074312,0.101627662777901,0.0932314917445183,0.0393225029110909,0.0,0.0,0.0,0.0,0.0,normal,2017-05-23  09:12:59.885+0000,65.0,11.2497324593839,897.858642578125,77.6387703530414,12.9536043945045,1495530782.007,normal,18,18,normal
-3.6,-0.283638179302216,-0.00340651115402579,-0.115167155861855,1.35959907525216,-0.60658885843858,0.964452182233087,0.125439465045929,-0.0157801564782858,-0.0259643793106079,0.0,0.0,0.0,0.0,0.0,normal,2017-05-23  09:12:59.885+0000,65.0,11.2497324593839,897.858642578125,77.6387703530414,12.9536043945045,1495530782.105,normal,19,19,normal
-3.6,-0.0831534639000893,-0.061133299022913,-0.152145728468895,1.33002303528835,-0.265015782094894,0.623680530964257,0.125902906060219,-0.0974496454000473,-0.0665630176663399,0.0,0.0,0.0,0.0,0.0,normal,2017-05-23  09:12:59.885+0000,65.0,11.2497324593839,897.858642578125,77.6387703530414,12.9536043945045,1495530782.193,normal,20,20,normal
-3.6,-0.0757517144083977,0.0667987316846848,-0.0909846946597099,1.32065612957234,-0.208244845257874,0.565106688603117,0.122008413076401,-0.0835667327046394,-0.168437495827675,0.0,0.0,0.0,0.0,0.0,normal,2017-05-23  09:12:59.885+0000,65.0,11.2497324593839,897.858642578125,77.6387703530414,12.9536043945045,1495530782.292,normal,21,21,normal
-3.6,0.62008273601532,0.126425802707672,0.0396518856287003,1.34442417945054,-0.219791214389657,0.577949488750323,0.0684657841920853,-0.028595220297575,0.0237317681312561,0.0,0.0,0.0,0.0,0.0,normal,2017-05-23  09:12:59.885+0000,65.0,11.2497324593839,897.858642578125,77.6387703530414,12.9536043945045,1495530782.391,normal,22,22,normal
-3.6,-0.487828642129898,-0.15121790766716,0.053343839943409,1.35897990995998,-0.24658313036097,0.60759243294283,0.0771653056144714,0.0558519437909126,0.145313635468483,0.0,0.0,0.0,0.0,0.0,normal,2017-05-23  09:12:59.885+0000,65.0,11.2497324593839,897.858642578125,77.6387703530414,12.9536043945045,1495530782.477,normal,23,23,normal
-3.6,-0.544866442680359,-0.22234696149826,-0.229261815547943,1.30809648041171,-0.221336042830628,0.562328139424459,0.0845676884055138,-0.0308591350913048,-0.0928377956151962,0.0,0.0,0.0,0.0,0.0,normal,2017-05-23  09:12:59.885+0000,65.0,11.2497324593839,897.858642578125,77.6387703530414,12.9536043945045,1495530782.564,normal,24,24,normal
-3.6,0.412510365247726,-0.187516927719116,-0.123191431164742,1.3008683583865,-0.189408838678748,0.511750582435147,0.136128917336464,-0.220917537808418,-0.194787338376045,0.0,0.0,0.0,0.0,0.0,normal,2017-05-23  09:12:59.885+0000,65.0,11.2497324593839,897.858642578125,77.6387703530414,12.9536043945045,1495530782.662,normal,25,25,normal
31.86000137329103,0.765858829021454,-0.0988819897174835,0.000917058030609041,1.36123944989481,-0.228985178657523,0.537668554365376,0.0386290922760963,0.113483913242817,-0.0429327487945557,0.0,0.0,0.0,0.0,0.0,normal,2017-05-23  09:12:59.885+0000,50.0,32.0,891.422119140625,77.6387561113365,12.953577185993,1495530782.748,normal,26,26,normal
31.86000137329103,0.00963935628533363,-0.0757480040192604,0.369323521852493,1.39430082105577,-0.448175028583776,0.740997511836453,0.040896087884903,0.141813695430756,0.27983745932579,0.0,0.0,0.0,0.0,0.0,normal,2017-05-23  09:12:59.885+0000,50.0,32.0,891.422119140625,77.6387561113365,12.953577185993,1495530782.846,normal,27,27,normal
31.86000137329103,-0.279395550489426,0.0648244991898537,0.463512927293777,1.37766215116939,-0.656140489599313,0.939806003851671,0.167004451155663,-0.0698467791080475,0.10812022536993,0.0,0.0,0.0,0.0,0.0,normal,2017-05-23  09:12:59.885+0000,50.0,32.0,891.422119140625,77.6387561113365,12.953577185993,1495530782.944,normal,28,28,normal
31.86000137329103,-0.298462778329849,0.0460566282272339,0.0799925625324249,1.35486164870975,-0.678952404206236,0.965627171446034,0.0474995039403439,-0.0737452954053879,-0.150837019085884,0.0,0.0,0.0,0.0,0.0,normal,2017-05-23  09:12:59.885+0000,50.0,32.0,891.422119140625,77.6387561113365,12.953577185993,1495530783.031,normal,29,29,normal
31.86000137329103,-0.0155722927302122,0.142709240317345,-0.0393612682819366,1.34782904106497,-0.601487297769978,0.90015716954735,0.0696313232183456,-0.111576907336712,-0.0745047181844711,0.0,0.0,0.0,0.0,0.0,normal,2017-05-23  09:12:59.885+0000,50.0,32.0,891.853515625,77.6388241723903,12.9535417724521,1495530783.118,normal,30,30,normal
31.86000137329103,0.026854308322072,0.065266840159893,0.292767405509949,1.35111459640643,-0.655654365312394,0.976544889046119,0.126482263207436,-0.0239110738039017,-0.0592307932674885,0.0,0.0,0.0,0.0,0.0,normal,2017-05-23  09:12:59.885+0000,50.0,32.0,891.853515625,77.6388241723903,12.9535417724521,1495530783.217,normal,31,31,normal
31.86000137329103,-0.553147494792938,0.0990321710705757,0.0195075739175081,1.32266716865585,-0.622240197234263,0.949332821608438,-0.0247023478150368,0.0617197714745998,0.0724399536848068,0.0,0.0,0.0,0.0,0.0,normal,2017-05-23  09:12:59.885+0000,50.0,32.0,891.853515625,77.6388241723903,12.9535417724521,1495530783.303,normal,32,32,normal
31.86000137329103,0.56934529542923,-0.070002093911171,0.378215253353119,1.3115988194572,-0.653135544378807,1.00605229074659,0.278187811374664,-0.0619989968836308,-0.461608290672302,0.0,0.0,0.0,0.0,0.0,normal,2017-05-23  09:12:59.885+0000,50.0,32.0,891.853515625,77.6388241723903,12.9535417724521,1495530783.403,normal,33,33,normal
31.86000137329103,0.423563331365585,-0.00380550161935389,0.0485244430601597,1.32429604518423,-0.846115276042994,1.20953215795929,0.37294065952301,0.0721435472369194,-0.531711757183075,0.0,0.0,0.0,0.0,0.0,normal,2017-05-23  09:12:59.885+0000,50.0,32.0,891.853515625,77.6388241723903,12.9535417724521,1495530783.491,normal,34,34,normal
31.86000137329103,-0.486102193593979,0.163609817624092,-0.196932017803192,1.34582633176499,-0.838766848736124,1.20707889901561,-0.0258738771080971,0.137886732816696,0.0437537282705307,0.0,0.0,0.0,0.0,0.0,normal,2017-05-23  09:12:59.885+0000,50.0,32.0,891.853515625,77.6388241723903,12.9535417724521,1495530783.588,normal,35,35,normal
31.86000137329103,0.316897034645081,0.500606596469879,-0.00191637070383877,1.35241391404396,-0.862217299325659,1.24725649781228,0.0609082467854023,-0.0732350721955299,0.212870821356773,0.0,0.0,0.0,0.0,0.0,normal,2017-05-23  09:12:59.885+0000,50.0,32.0,891.853515625,77.6388241723903,12.9535417724521,1495530783.675,normal,36,36,normal
31.86000137329103,-0.511808037757874,0.21846504509449,0.0647733807563782,1.36417560206013,-0.986940298149798,1.40111191843497,-0.148930296301842,0.210770174860954,0.600837171077728,0.0,0.0,0.0,0.0,0.0,normal,2017-05-23  09:12:59.885+0000,50.0,32.0,891.853515625,77.6388241723903,12.9535417724521,1495530783.773,normal,37,37,normal
31.86000137329103,-1.30035650730133,-0.181331723928452,0.220277950167656,1.30797382903099,-0.835541032271237,1.20859914331911,0.0929722711443901,-0.40859180688858,0.34550666809082,0.0,0.0,0.0,0.0,0.0,normal,2017-05-23  09:12:59.885+0000,50.0,32.0,891.853515625,77.6388241723903,12.9535417724521,1495530783.859,normal,38,38,normal
31.86000137329103,0.401022911071777,0.404821664094925,-0.257356345653534,1.3426283402543,-0.779045875482311,1.14730079262908,0.164950862526894,-0.219933077692986,-0.425424367189407,0.0,0.0,0.0,0.0,0.0,normal,2017-05-23  09:12:59.885+0000,50.0,32.0,891.853515625,77.6388241723903,12.9535417724521,1495530783.956,normal,39,39,normal
31.86000137329103,0.469995588064194,0.188683077692986,-0.431372493505478,1.39589310646633,-0.76475836723284,1.12973067159541,-0.124896593391895,0.248781472444534,-0.155263856053352,0.0,0.0,0.0,0.0,0.0,normal,2017-05-23  09:12:59.885+0000,50.0,32.0,891.853515625,77.6388241723903,12.9535417724521,1495530784.045,normal,40,40,normal
34.99200096130372,-0.189954921603203,-0.145086511969566,-0.151804983615875,1.40340392668622,-0.593078042139759,0.932210812420255,0.0361914485692978,0.210311517119408,0.0433709174394608,0.0,0.0,0.0,0.0,0.0,normal,2017-05-23  09:12:59.885+0000,10.0,12.0,884.1337890625,77.6388846897312,12.9534592526154,1495530784.142,normal,41,41,normal
34.99200096130372,-0.0700255855917931,-0.0679439753293991,-0.00564500875771046,1.38291322785137,-0.531896382801759,0.853997480497034,0.253465980291367,-0.124409690499306,-0.0780687257647514,0.0,0.0,0.0,0.0,0.0,normal,2017-05-23  09:12:59.885+0000,10.0,12.0,884.1337890625,77.6388846897312,12.9534592526154,1495530784.23,normal,42,42,normal
34.99200096130372,0.0655531510710716,-0.168152272701263,-0.127049699425697,1.37674780880458,-0.459604104228547,0.777044842161417,0.0594774186611176,-0.112457372248173,-0.0933519452810287,0.0,0.0,0.0,0.0,0.0,normal,2017-05-23  09:12:59.885+0000,10.0,12.0,884.1337890625,77.6388846897312,12.9534592526154,1495530784.329,normal,43,43,normal
34.99200096130372,0.247266530990601,-8.46217590151355e-05,0.221786797046661,1.39133875668303,-0.55081864651107,0.863470058707779,0.212883114814758,-0.103507459163666,-0.224063977599144,0.0,0.0,0.0,0.0,0.0,normal,2017-05-23  09:12:59.885+0000,10.0,12.0,884.1337890625,77.6388846897312,12.9534592526154,1495530784.416,normal,44,44,normal
34.99200096130372,0.173208609223366,-0.0515217743813992,0.307930529117584,1.39080269042068,-0.760619242138503,1.06218725822439,0.157730340957642,-0.0111350268125534,-0.150572031736374,0.0,0.0,0.0,0.0,0.0,normal,2017-05-23  09:12:59.885+0000,10.0,12.0,884.1337890625,77.6388846897312,12.9534592526154,1495530784.512,normal,45,45,normal
34.99200096130372,0.109071023762226,-0.0139840990304947,0.214380189776421,1.38557397597845,-0.921888416160619,1.21803424792672,0.137729778885841,0.0644382908940315,-0.158603429794312,0.0,0.0,0.0,0.0,0.0,normal,2017-05-23  09:12:59.885+0000,10.0,12.0,884.1337890625,77.6388846897312,12.9534592526154,1495530784.601,normal,46,46,normal
34.99200096130372,0.0643092691898346,0.0846255347132683,0.1588004976511,1.39341908627779,-0.942998210013495,1.24160455577577,-0.0456727109849453,0.131770804524422,0.0141772869974375,0.0,0.0,0.0,0.0,0.0,normal,2017-05-23  09:12:59.885+0000,10.0,12.0,884.1337890625,77.6388846897312,12.9534592526154,1495530784.699,normal,47,47,normal
34.99200096130372,-0.233153030276299,-0.075333334505558,0.256169080734253,1.38407326898961,-0.971087855251624,1.27008910172616,0.031389094889164,0.0810980647802353,-0.0127476835623384,0.0,0.0,0.0,0.0,0.0,normal,2017-05-23  09:12:59.885+0000,10.0,12.0,884.1337890625,77.6388846897312,12.9534592526154,1495530784.785,normal,48,48,normal
34.99200096130372,-1.01107621192932,-0.0758622661232948,0.349244505167007,1.33801945714073,-0.860292460039795,1.1498530898792,0.188886255025864,-0.127449542284012,0.104631252586842,-0.012169902110472197,0.1172960773544037,0.12448466472327713,-0.02368440634571021,-0.053959226105362204,normal,2017-05-23  09:12:59.885+0000,10.0,12.0,884.1337890625,77.6388846897312,12.9534592526154,1495530784.884,normal,49,49,normal
34.99200096130372,0.119589425623417,0.372215390205383,-0.159047812223434,1.31762524056988,-0.773087796850908,1.06679926830938,0.168662935495377,-0.0583052113652229,-0.390559911727905,-0.004750560158863537,0.1175042710141861,0.1260104025155306,-0.02559728226624434,-0.059267789516598,normal,2017-05-23  09:12:59.885+0000,10.0,12.0,884.1337890625,77.6388846897312,12.9534592526154,1495530784.971,normal,50,50,normal
34.99200096130372,-0.0733767673373222,0.222587466239929,-0.0370699092745781,1.33281705687664,-0.780728860736596,1.09755723094661,0.127872571349144,0.115111611783504,0.0517314821481705,-0.01800553389824914,0.10753336642548676,0.12298352457582955,-0.0211981248017401,-0.051817276570945994,normal,2017-05-23  09:12:59.885+0000,10.0,12.0,884.1337890625,77.6388846897312,12.9534592526154,1495530785.068,normal,51,51,normal
39.67200164794932,-0.043752446770668,0.37462243437767,0.116245195269585,1.33206784628211,-0.782049132679544,1.12998861995399,0.203756123781204,0.0704553499817848,-0.113498538732529,-0.01616798230446862,0.10754848871991272,0.12048558451235297,-0.020644716313108852,-0.052616917584091455,normal,2017-05-23  09:12:59.885+0000,10.0,12.0,891.306396484375,77.6389738731809,12.9533874197052,1495530785.156,normal,52,52,normal
39.67200164794932,-0.314867466688156,-0.11012963950634,-0.0203968640416861,1.31520118930605,-0.737232399530839,1.08754290799841,0.125187665224075,0.00326434639282525,-0.0674517750740051,-0.02656089463271188,0.09502168957755204,0.12385608479380611,-0.020661633699201095,-0.05508054601028564,normal,2017-05-23  09:12:59.885+0000,10.0,12.0,891.306396484375,77.6389738731809,12.9533874197052,1495530785.254,normal,53,53,normal
39.67200164794932,-0.33251690864563,-0.199578240513802,-0.108842737972736,1.30221491934579,-0.447181967762828,0.79370863800711,0.106998898088932,-0.170113772153854,0.00430044531822205,-0.025475899958982938,0.08983587075636025,0.1248797928541899,-0.02501005077268932,-0.05490804820321503,normal,2017-05-23  09:12:59.885+0000,10.0,12.0,891.306396484375,77.6389738731809,12.9533874197052,1495530785.341,normal,54,54,normal
39.67200164794932,0.744884312152863,0.205826252698898,0.155015558004379,1.31667650028159,-0.49278625963564,0.852238359124861,0.236086890101433,-0.232081487774849,-0.273222863674164,5.22818323226204e-05,0.09133524228498574,0.123138786777854,-0.02636291140224788,-0.05845560311339798,normal,2017-05-23  09:12:59.885+0000,10.0,12.0,891.306396484375,77.6389738731809,12.9533874197052,1495530785.439,normal,55,55,normal
39.67200164794932,0.0518717058002949,-0.464867323637009,-0.00472665065899491,1.35524724334864,-0.64238676403726,1.00997356048593,-0.0439490713179111,0.231619849801064,0.0433660559356213,-0.0020037129614500814,0.07209225882455941,0.11528958156704906,-0.01702591860201212,-0.050274533396586794,normal,2017-05-23  09:12:59.885+0000,10.0,12.0,891.306396484375,77.6389738731809,12.9533874197052,1495530785.549,normal,56,56,normal
39.67200164794932,-1.10744559764862,-0.918205261230469,0.0278051421046257,1.32401107616116,-0.4888415969347,0.839523912983675,0.268252372741699,-0.0521478317677975,-0.0229254309087992,-0.04575076133944088,0.04266229142114754,0.11383555546402935,-0.013595659895800073,-0.04559242333285511,normal,2017-05-23  09:12:59.885+0000,10.0,12.0,891.306396484375,77.6389738731809,12.9533874197052,1495530785.624,normal,57,57,normal
39.67200164794932,0.099405474960804,-0.523916840553284,0.122058801352978,1.30636820738139,-0.396656349729948,0.771449412784251,0.130070373415947,-0.0942366346716881,-0.38208869099617,-0.0475514485035091,0.03394912470743293,0.11375105246901518,-0.018165569021366554,-0.05387405122630299,Hard Acceleration,2017-05-23  09:12:59.885+0000,10.0,12.0,891.306396484375,77.6389738731809,12.9533874197052,1495530785.712,Hard Acceleration,58,58,matched
39.67200164794932,0.222009927034378,-0.14493291079998,0.164226293563843,1.34419810331113,-0.577418188514793,0.972576043397414,0.169922649860382,0.187815189361572,-0.156089529395103,-0.043403461361303866,0.032327858401986306,0.11383870258927349,-0.01675134049262853,-0.05534839491359889,Hard Acceleration,2017-05-23  09:12:59.885+0000,10.0,12.0,891.306396484375,77.6389738731809,12.9533874197052,1495530785.81,Hard Acceleration,59,59,matched
39.67200164794932,-0.348124414682388,-0.128240093588829,0.324972093105316,1.36437736135386,-0.768333862997871,1.15080965166367,0.302359253168106,0.192897737026215,-0.360495775938034,-0.05119941310025745,0.026395017399045168,0.11527863487601284,-0.009317954643629492,-0.05989187995903194,Hard Acceleration,2017-05-23  09:12:59.885+0000,10.0,12.0,891.306396484375,77.6389738731809,12.9533874197052,1495530785.897,Hard Acceleration,60,60,matched
39.67200164794932,1.20449078083038,0.49847275018692,0.283591955900192,1.39298848250284,-1.07021809853533,1.48793634357434,0.372502028942108,0.119670800864697,-0.938474297523499,-0.03364003495313226,0.031505915416928466,0.11825679346919063,-0.003811456575058391,-0.0751955897640437,Hard Acceleration,2017-05-23  09:12:59.885+0000,10.0,12.0,891.306396484375,77.6389738731809,12.9533874197052,1495530785.995,Hard Acceleration,61,61,matched
39.67200164794932,0.46520608663559,0.547645449638367,0.477375596761703,1.3503046618478,-1.26044448640927,1.70171965619174,0.694695770740509,0.13184167444706,-0.280268669128418,-0.024893593611195666,0.036705196990224065,0.1272219489514828,-0.0029767380794510074,-0.07880891139619055,Hard Acceleration,2017-05-23  09:12:59.885+0000,10.0,12.0,891.306396484375,77.6389738731809,12.9533874197052,1495530786.093,Hard Acceleration,62,62,matched
43.91999931335436,0.694951236248016,0.192244738340378,-0.410484582185745,1.3505037643755,-1.27199971265646,1.72483554066638,0.31152468919754,0.104510933160782,-0.54074764251709,-0.006593330921605225,0.033062115205975726,0.13271906159818175,-0.0026234039803966673,-0.092818964375183,Hard Acceleration,2017-05-23  09:12:59.885+0000,10.0,16.0,892.04443359375,77.6390566025652,12.9532854538532,1495530786.179,Hard Acceleration,63,63,matched
43.91999931335436,-0.1324482858181,-0.0913969129323959,-0.370835214853287,1.39050776540375,-1.29939830778705,1.75987025920247,0.30722576379776,0.263546615839005,-0.437876552343369,-0.009192270934581753,0.027033006145211407,0.13501582704484466,0.004962048665620413,-0.1016887094639242,Hard Acceleration,2017-05-23  09:12:59.885+0000,10.0,16.0,892.04443359375,77.6390566025652,12.9532854538532,1495530786.266,Hard Acceleration,64,64,matched
43.91999931335436,0.216277003288269,0.0191164631396532,-0.0156637895852327,1.38853781587288,-1.28489329879553,1.7523866488585,0.497761487960815,0.0205309595912695,-0.515472173690796,-0.003711327537894247,0.023608597150596333,0.14351881779730324,0.008292529233731362,-0.10911380609497431,Hard Acceleration,2017-05-23  09:12:59.885+0000,10.0,16.0,892.04443359375,77.6390566025652,12.9532854538532,1495530786.365,Hard Acceleration,65,65,matched
43.91999931335436,0.102126516401768,-0.415611833333969,-0.175238445401192,1.38309762858923,-1.33624805454456,1.81276907955815,0.574723601341248,-0.0735940188169479,-0.366164475679398,-0.0032650264352559965,0.008180353275092794,0.15406719744205477,0.008631408163346385,-0.11711495390161876,Hard Acceleration,2017-05-23  09:12:59.885+0000,10.0,16.0,892.04443359375,77.6390566025652,12.9532854538532,1495530786.452,Hard Acceleration,66,66,matched
43.91999931335436,-0.539676547050476,-0.0395024754106998,0.29809296131134,1.36958329073628,-1.25439659203265,1.74314681952905,0.50442111492157,-0.147479206323624,-0.141092345118523,-0.017180158123373975,0.0001223696829401977,0.16134322881698612,0.004752835952676862,-0.12041257338598374,Hard Acceleration,2017-05-23  09:12:59.885+0000,10.0,16.0,892.04443359375,77.6390566025652,12.9532854538532,1495530786.55,Hard Acceleration,67,67,matched
43.91999931335436,-0.199408516287804,0.230748325586319,0.188181415200233,1.34060654945251,-1.23140459139171,1.74006609331969,0.307173073291779,-0.0237218588590622,-0.135726854205132,-0.0183983837813139,0.00291327223792906,0.16545413702726366,0.0024137689406052523,-0.12391356052830821,Hard Acceleration,2017-05-23  09:12:59.885+0000,10.0,16.0,892.04443359375,77.6390566025652,12.9532854538532,1495530786.648,Hard Acceleration,68,68,matched
43.91999931335436,0.214823916554451,0.350236028432846,-0.103276662528515,1.33616144134068,-1.29828923563645,1.84417232078093,0.308701992034912,0.144092828035355,-0.432513296604156,-0.008429141864180558,0.009986123029666496,0.16911938756704334,0.005611228630878068,-0.13204453887417916,Hard Acceleration,2017-05-23  09:12:59.885+0000,10.0,16.0,892.04443359375,77.6390566025652,12.9532854538532,1495530786.734,Hard Acceleration,69,69,matched
43.91999931335436,-0.109751105308533,0.00132616981863976,0.0117470417171717,1.34023020780955,-1.31267273689721,1.86716183171805,0.477869927883148,0.189265936613083,-0.439283847808838,-0.008961094692349432,0.01123531240649755,0.17615872800350194,0.011345540271140675,-0.13949895547702912,Hard Acceleration,2017-05-23  09:12:59.885+0000,10.0,16.0,892.04443359375,77.6390566025652,12.9532854538532,1495530786.822,Hard Acceleration,70,70,matched
43.91999931335436,0.169388994574547,-0.349133372306824,0.345869958400726,1.30141775768416,-1.16377818407951,1.71092311616347,0.629431128501892,-0.0793832391500473,-0.35732239484787,-0.004058280512690539,0.0029166703266673743,0.18630718231201177,0.011429210142232518,-0.143276653457433,Hard Acceleration,2017-05-23  09:12:59.885+0000,10.0,16.0,892.04443359375,77.6390566025652,12.9532854538532,1495530786.919,Hard Acceleration,71,71,matched
43.91999931335436,0.0928491875529289,0.19270071387291,0.495737791061401,1.28624125811116,-1.10357471029153,1.64835818851739,0.569002032279968,-0.0536410808563232,0.00376240955665708,-0.014602951481938362,0.004242168549972134,0.1963179072737694,0.010928292931057553,-0.143676040628925,Hard Acceleration,2017-05-23  09:12:59.885+0000,10.0,16.0,892.04443359375,77.6390566025652,12.9532854538532,1495530787.007,Hard Acceleration,72,72,matched
43.91999931335436,0.225426182150841,0.800443828105927,0.3972128033638,1.2496999701074,-1.2760849640466,1.84162281425213,0.346586167812347,-0.0353934764862061,-0.151644259691238,-0.0003378549963235822,0.023275403265433873,0.20170632451772694,0.009103384525515179,-0.14961519853211944,Hard Acceleration,2017-05-23  09:12:59.885+0000,10.0,16.0,892.04443359375,77.6390566025652,12.9532854538532,1495530787.105,Hard Acceleration,73,73,matched
41.43600082397448,-0.0731538534164429,0.414183914661407,-0.370335400104523,1.27497137741449,-1.43899386997205,2.02271201508023,0.241774573922157,0.302402436733246,-0.227037250995636,0.00909639678895474,0.03600602078862722,0.2048504622280598,0.015768615962006197,-0.15229918763972822,Hard Acceleration,2017-05-23  09:12:59.885+0000,10.0,16.0,891.231567382812,77.6391015295662,12.9532014671834,1495530787.203,Hard Acceleration,74,74,matched
41.43600082397448,-0.288481801748276,0.746008634567261,0.238523557782173,1.27230488834301,-1.31409322041642,1.89806993822982,0.653735637664795,-0.324049711227417,-0.314236223697662,-0.0049234465509653,0.05467653203435475,0.21520259663462643,0.013705972493626217,-0.15468816534616056,Decceleration,2017-05-23  09:12:59.885+0000,10.0,16.0,891.231567382812,77.6391015295662,12.9532014671834,1495530787.29,Decceleration,75,75,matched
41.43600082397448,0.0940946489572525,0.150844186544418,-0.127100124955177,1.27744505174683,-1.39965481411937,1.98783802198093,0.307734221220016,-0.0675000846385956,-0.701928555965424,-0.018358730152249328,0.059671055559592776,0.22058469921350482,0.010086292535997965,-0.16786808148957794,Decceleration,2017-05-23  09:12:59.885+0000,10.0,16.0,891.231567382812,77.6391015295662,12.9532014671834,1495530787.379,Decceleration,76,76,matched
41.43600082397448,0.295974254608154,0.256492495536804,-0.172751054167747,1.30757331880092,-1.41214344016103,2.01915825163751,0.39806991815567,0.116664178669453,-0.392470926046371,-0.012632032185792922,0.06631586555071406,0.22772817581892016,0.009583302200771904,-0.18131424919702116,Decceleration,2017-05-23  09:12:59.885+0000,10.0,16.0,891.231567382812,77.6391015295662,12.9532014671834,1495530787.478,Decceleration,77,77,matched
41.43600082397448,-0.477498769760132,0.0104596903547645,-0.25856277346611,1.31657255296951,-1.32512017847077,1.93786802363131,0.357849478721619,0.157357707619667,-0.266378700733185,-0.016594096571207043,0.06522856937401228,0.2315450763702393,0.014127391935326195,-0.18880422771908345,Decceleration,2017-05-23  09:12:59.885+0000,10.0,16.0,891.231567382812,77.6391015295662,12.9532014671834,1495530787.564,Decceleration,78,78,matched
41.43600082397448,0.106502860784531,0.0561527535319328,-0.146540254354477,1.32912645585951,-1.17455802704904,1.7959056471225,0.483415573835373,-0.103126473724842,-0.523614645004272,-0.008494783788919444,0.06543049188010626,0.24026339776813987,0.013539768368937112,-0.19625978023745122,Decceleration,2017-05-23  09:12:59.885+0000,10.0,16.0,891.231567382812,77.6391015295662,12.9532014671834,1495530787.661,Decceleration,79,79,matched
41.43600082397448,0.172554865479469,-0.0307561457157135,-0.0245968569070101,1.34058320228701,-1.19953783353727,1.83037233949146,0.50644713640213,-0.049514539539814,-0.393459171056747,-0.004732240624725821,0.061961184159445085,0.24899971403181556,0.014781015724875073,-0.20263886929489675,Decceleration,2017-05-23  09:12:59.885+0000,10.0,16.0,891.231567382812,77.6391015295662,12.9532014671834,1495530787.759,Decceleration,80,80,matched
41.43600082397448,0.381149172782898,0.255541861057281,-0.0645332336425781,1.34930818166646,-1.307064693619,1.94314402118885,0.582782924175262,-0.120177291333675,-0.350996464490891,0.0023536566644906994,0.06576668457739285,0.2581257272511721,0.012855691374279608,-0.2084741827193648,Decceleration,2017-05-23  09:12:59.885+0000,10.0,16.0,891.231567382812,77.6391015295662,12.9532014671834,1495530787.846,Decceleration,81,81,matched
41.43600082397448,0.240096643567085,0.252380102872849,0.0251530352979898,1.3530059002328,-1.4333662896259,2.10108237993012,0.327820301055908,-0.0140859959647059,-0.229202821850777,0.018218539431691157,0.06883364321343831,0.265176180228591,0.011339576025493492,-0.21450703823007647,Decceleration,2017-05-23  09:12:59.885+0000,10.0,16.0,891.231567382812,77.6391015295662,12.9532014671834,1495530787.933,Decceleration,82,82,matched
41.43600082397448,-0.069439634680748,0.130470871925354,-0.499626219272614,1.38814106947611,-1.39413048065756,2.08770774855819,0.0862390026450157,0.130596905946732,-0.180463939905167,0.0054428408294915995,0.0728431025301688,0.261337204053998,0.015191494082100748,-0.20888415121473375,Decceleration,2017-05-23  09:12:59.885+0000,10.0,16.0,891.231567382812,77.6391015295662,12.9532014671834,1495530788.031,Decceleration,83,83,matched
27.612000274658218,0.133486047387123,-0.152652829885483,-0.412799328565598,1.4356397342386,-1.48139564771403,2.17229493081325,0.323935151100159,0.060963861644268,-0.529534637928009,-0.00035870485007764017,0.06986615596484622,0.260357093885541,0.01496790037024772,-0.20884060882963243,Decceleration,2017-05-23  09:12:59.885+0000,10.0,12.0,891.8662109375,77.6391233225145,12.9531727172555,1495530788.118,Decceleration,84,84,matched
27.612000274658218,-0.337697178125381,-0.0673319175839424,0.121547892689705,1.44827424177466,-1.41778367521432,2.09086080769652,0.633681535720825,0.0815538465976715,-0.308352917432785,0.002609395459294319,0.06524732126068553,0.27354820214211945,0.013841242645867231,-0.21588274174369876,Decceleration,2017-05-23  09:12:59.885+0000,10.0,12.0,891.8662109375,77.6391233225145,12.9531727172555,1495530788.216,Decceleration,85,85,matched
27.612000274658218,-0.459049135446548,0.155662700533867,0.0508813597261906,1.4268315369843,-1.22840984369586,1.90781893873126,0.465539127588272,-0.116622507572174,-0.23376926779747,-0.012909527942538261,0.05834844334196529,0.28164081975817684,0.01297349393833435,-0.22481554352678362,Decceleration,2017-05-23  09:12:59.885+0000,10.0,12.0,891.8662109375,77.6391233225145,12.9531727172555,1495530788.314,Decceleration,86,86,matched
27.612000274658218,-0.282033979892731,-0.0164856947958469,-0.687203109264374,1.43632835356086,-0.959681353847923,1.6608614368158,0.141094639897346,0.0842039957642555,-0.361034899950027,-0.008314046785235401,0.053649428544158544,0.2874413184821606,0.010442170356400382,-0.24405298494733874,Decceleration,2017-05-23  09:12:59.885+0000,10.0,12.0,891.8662109375,77.6391233225145,12.9531727172555,1495530788.402,Decceleration,87,87,matched
27.612000274658218,0.135228738188744,-0.293653339147568,-0.232717871665955,1.44841971873972,-0.661263433162326,1.37897656150239,0.49963316321373,-0.183717682957649,-0.384875625371933,0.02039765812456608,0.05140299623977622,0.2955745363235474,0.014939652835019001,-0.2586606308165938,Decceleration,2017-05-23  09:12:59.885+0000,10.0,12.0,891.8662109375,77.6391233225145,12.9531727172555,1495530788.488,Decceleration,88,88,matched
27.612000274658218,0.137509182095528,0.154137626290321,-0.176018342375755,1.45679599370622,-0.808915977821316,1.5170824471316,0.3945152759552,0.14417427778244,-0.418639689683914,0.0151273835450411,0.04638931548368414,0.30016582459211355,0.022221799944527523,-0.25852493726648396,Decceleration,2017-05-23  09:12:59.885+0000,10.0,12.0,891.8662109375,77.6391233225145,12.9531727172555,1495530788.587,Decceleration,89,89,matched
27.612000274658218,-0.115127384662628,-0.365184873342514,-0.265853196382523,1.48765204556228,-0.893752181656122,1.60380146759481,0.403689086437225,0.288736045360565,-0.50105607509613,0.003424924090504661,0.035311956462974144,0.3107375381886959,0.023020891402848142,-0.2654407816473395,Decceleration,2017-05-23  09:12:59.885+0000,10.0,12.0,891.8662109375,77.6391233225145,12.9531727172555,1495530788.675,Decceleration,90,90,matched
27.612000274658218,-0.239880993962288,-0.328881531953812,0.217135727405548,1.4722539275961,-0.757352486210796,1.44707207075267,0.519172966480255,-0.122954398393631,-0.219158679246902,0.0024264026433229603,0.03163605606328922,0.3203971685469151,0.01635557309258736,-0.27069137358106676,Decceleration,2017-05-23  09:12:59.885+0000,10.0,12.0,891.8662109375,77.6391233225145,12.9531727172555,1495530788.774,Decceleration,91,91,matched
27.612000274658218,0.158004596829414,-0.294648051261902,0.227066040039062,1.46153189011317,-0.919562922371832,1.58560608802884,0.351820141077042,-0.0801669135689735,-0.434295862913132,0.0069870062917471035,0.027101974544639158,0.32236425176262856,0.017240428631194012,-0.27781591632403435,Decceleration,2017-05-23  09:12:59.885+0000,10.0,12.0,891.8662109375,77.6391233225145,12.9531727172555,1495530788.873,Decceleration,92,92,matched
27.612000274658218,0.454039841890335,-0.437832146883011,0.225084766745567,1.45961829042155,-1.32770776311218,1.96983743756375,0.31995216012001,0.0289365593343973,-0.491849064826965,0.014756740108132372,0.0217083770610042,0.32757374659180644,0.020068307262845416,-0.2857858587149531,Decceleration,2017-05-23  09:12:59.885+0000,10.0,12.0,891.8662109375,77.6391233225145,12.9531727172555,1495530788.96,Decceleration,93,93,matched
27.612000274658218,0.231517776846886,-0.44494566321373,0.200413808226585,1.44159752549494,-1.63778591135714,2.26274424382636,0.32964625954628,0.0611844807863235,-0.28503742814064,0.01444176502525807,0.012811156231909902,0.32990900948643687,0.02336214606184521,-0.287005327725783,Decceleration,2017-05-23  09:12:59.885+0000,10.0,12.0,891.8662109375,77.6391233225145,12.9531727172555,1495530789.047,Decceleration,94,94,matched
27.612000274658218,-0.00856308359652758,-0.456184476613998,0.0245347153395414,1.42090656119606,-1.76146353363373,2.35215205368381,0.172242507338524,0.0300473105162382,-0.0559946708381176,0.010806331168860199,0.004717902187257925,0.3301992528140545,0.02418579280842104,-0.2851137805078179,Decceleration,2017-05-23  09:12:59.885+0000,10.0,12.0,891.8662109375,77.6391233225145,12.9531727172555,1495530789.145,Decceleration,95,95,matched
12.6,-0.19593508541584,-0.0826940611004829,-0.115367881953716,1.41539007366479,-1.76504925133707,2.32826192576396,0.0798793956637383,-0.0666624754667282,-0.115373015403748,0.004706208985298879,0.0033437029458581614,0.32904224514961244,0.021563777481205845,-0.2842491722200066,normal,2017-05-23  09:12:59.885+0000,5.0,12.0,891.2451171875,77.6390891243495,12.953159515758,1495530789.232,normal,96,96,normal
12.6,0.255239576101303,-0.383062809705734,-0.0234700031578541,1.4210293657444,-1.96045546477629,2.51359761875544,0.0528178103268147,0.00678072962909937,-0.241097718477249,0.008524815123528246,-0.006010063942521884,0.3310120555758476,0.019063975983299394,-0.28935467232950035,normal,2017-05-23  09:12:59.885+0000,5.0,12.0,891.2451171875,77.6390891243495,12.953159515758,1495530789.33,normal,97,97,normal
12.6,0.0268157329410315,-0.402019649744034,-0.0245539080351591,1.42365256245593,-2.12484623965753,2.66571083779632,0.0990911200642586,0.118069604039192,-0.0882163867354393,0.013724190387874858,-0.012543790247291402,0.3323660960793495,0.01980340676847853,-0.29086404639296237,normal,2017-05-23  09:12:59.885+0000,5.0,12.0,891.2451171875,77.6390891243495,12.953159515758,1495530789.418,normal,98,98,normal
12.6,0.318979829549789,-0.351769089698792,-0.179441511631012,1.40942262638565,-2.16857906660106,2.70192482335568,0.342237859964371,-0.124183297157288,-0.195501253008842,0.04032531121745704,-0.018061926718801344,0.33543312817811965,0.01986873167101301,-0.29686669650487607,normal,2017-05-23  09:12:59.885+0000,5.0,12.0,891.2451171875,77.6390891243495,12.953159515758,1495530789.517,normal,99,99,normal
12.6,0.0131940906867385,-0.332172334194183,-0.284122794866562,1.40991612190476,-2.34690506241336,2.85720243547839,0.07978605479002,0.135310545563698,-0.0711356475949287,0.03819740451872347,-0.032149681206792666,0.3336555905640125,0.023741046809591427,-0.2904782112222165,normal,2017-05-23  09:12:59.885+0000,5.0,12.0,891.2451171875,77.6390891243495,12.953159515758,1495530789.604,normal,100,100,normal
12.6,-0.357355773448944,-0.0485631376504898,-0.271452277898788,1.46262562652041,-2.17472826638164,2.66959733842191,0.221904143691063,-0.0956122055649757,0.135331407189369,0.032517824396491035,-0.03757269328460104,0.3355362220108509,0.019526570462621833,-0.28880621272139256,normal,2017-05-23  09:12:59.885+0000,5.0,12.0,891.2451171875,77.6390891243495,12.953159515758,1495530789.702,normal,101,101,normal
12.6,0.259141057729721,0.139257565140724,0.308624476194382,1.44732435566621,-2.15566519593592,2.66649807448647,0.57451993227005,-0.277128964662552,-0.288285702466965,0.038575694486498814,-0.04227999066933997,0.3429514981806278,0.012574884169735097,-0.2923019559960813,normal,2017-05-23  09:12:59.885+0000,5.0,12.0,891.2451171875,77.6390891243495,12.953159515758,1495530789.789,normal,102,102,normal
12.6,0.0895040854811668,0.0883316770195961,0.137789726257324,1.415757306416,-2.25870467758009,2.78816023505154,-0.249794751405716,0.20133863389492,-0.0150055643171072,0.046663125529885274,-0.038310764338821246,0.335451849848032,0.016536369919776993,-0.2912530317809433,normal,2017-05-23  09:12:59.885+0000,5.0,12.0,891.2451171875,77.6390891243495,12.953159515758,1495530789.887,normal,103,103,normal
12.6,-0.0781346186995506,0.313108533620834,0.246583178639412,1.40662465366875,-2.24284431862338,2.77338841386642,0.0812192931771278,-0.0156737118959427,0.0236283596605062,0.05175077132880686,-0.028057028856128527,0.3349362577497959,0.01962517112493522,-0.2908664734940976,normal,2017-05-23  09:12:59.885+0000,5.0,12.0,891.2451171875,77.6390891243495,12.953159515758,1495530789.987,normal,104,104,normal
12.6,-1.02671933174133,-0.499128997325897,-0.254690796136856,1.42678668969855,-2.17779104768725,2.68709120175674,0.0159627366811037,0.139215171337128,-0.106868855655193,0.016318698450923,-0.04215613385662443,0.33053377468138934,0.027051104307174757,-0.2875393933337182,normal,2017-05-23  09:12:59.885+0000,5.0,12.0,891.2451171875,77.6390891243495,12.953159515758,1495530790.075,normal,105,105,normal
12.6,-1.42631733417511,-0.131058156490326,0.180659174919128,1.45045827729816,-0.983901608144066,1.44737134437648,0.0168449115008116,-0.46046370267868,0.25333896279335,-0.013245082348585098,-0.03547995051369077,0.33174965433776377,0.013209433257579879,-0.28333993519656364,normal,2017-05-23  09:12:59.885+0000,5.0,12.0,891.2451171875,77.6390891243495,12.953159515758,1495530790.162,normal,106,106,normal
7.920000171661392,0.844052255153656,-0.0991245359182358,-0.408482611179352,1.51009472184807,-0.821751570220481,1.28615385818859,-0.0666723474860191,0.36735987663269,-0.766979813575745,0.025784874707460423,-0.0190983360074461,0.32505115993320943,0.02159958742558963,-0.29822102284990254,normal,2017-05-23  09:12:59.885+0000,5.0,6.0,888.7177734375,77.6390923932918,12.953129215178,1495530790.261,normal,107,107,normal
7.920000171661392,0.93763655424118,0.461051285266876,-0.0754092782735825,1.53025016779215,-2.56120474602513,3.04427204891886,0.26745131611824,0.531679332256317,-0.222206145524979,0.042549496293067944,0.000601026508957101,0.3277987787872553,0.034117906764149726,-0.29502337194047873,normal,2017-05-23  09:12:59.885+0000,5.0,6.0,888.7177734375,77.6390923932918,12.953129215178,1495530790.348,normal,108,108,normal
7.920000171661392,0.700983822345734,0.486783593893051,0.0241622757166624,1.46390617644207,-2.98745093426705,-2.78821906224013,-0.0083088893443346,0.564177930355072,-0.199385434389114,0.05212897419929506,0.013235356602817721,0.32423414800316097,0.041645161584019735,-0.2958892900403589,normal,2017-05-23  09:12:59.885+0000,5.0,6.0,888.7177734375,77.6390923932918,12.953129215178,1495530790.445,normal,109,109,normal
7.920000171661392,-0.76710444688797,0.0608106330037117,0.110580034554005,1.45686247661103,-2.82245101114693,-2.95761222076945,0.223566368222237,-0.191587820649147,0.497048854827881,0.04374937355518342,0.017016371134668536,0.3226582903042436,0.03395545043051249,-0.27873839742504064,normal,2017-05-23  09:12:59.885+0000,5.0,6.0,888.7177734375,77.6390923932918,12.953129215178,1495530790.544,normal,110,110,normal
7.920000171661392,-2.11162948608398,-0.413472294807434,0.618837773799896,1.51157341319451,-0.974851150496022,1.44068619638471,0.25781711935997,-0.749952614307404,0.539355933666229,-0.02257303178310378,-0.0012225297652185452,0.3203645921126008,0.016562982127070473,-0.24918179280124608,normal,2017-05-23  09:12:59.885+0000,5.0,6.0,888.7177734375,77.6390923932918,12.953129215178,1495530790.631,normal,111,111,normal
7.920000171661392,-0.204134091734886,0.63548469543457,0.398344129323959,1.39647232880392,-0.645868073761951,1.15441120466121,0.198372468352318,-0.666050136089325,-0.27346482872963,-0.0359598353505133,0.0005342551507055138,0.310438126064837,0.0006051459163427725,-0.2490457159932703,normal,2017-05-23  09:12:59.885+0000,5.0,6.0,888.7177734375,77.6390923932918,12.953129215178,1495530790.719,normal,112,112,normal
7.920000171661392,0.505501687526703,0.407476186752319,-0.632211327552795,1.40442199740761,-0.521407023632923,1.07046243667907,-0.268127083778381,0.407685220241547,-0.129286453127861,-0.03974882632493956,0.0048388841189443334,0.29884509060531855,0.006668631657958073,-0.24081649220548573,normal,2017-05-23  09:12:59.885+0000,5.0,6.0,888.7177734375,77.6390923932918,12.953129215178,1495530790.817,normal,113,113,normal
7.920000171661392,0.313844084739685,0.0523943863809109,-0.235593125224113,1.44513656756886,-0.39846207855033,0.952162309431694,0.198331922292709,0.390964686870575,-0.101133421063423,-0.03082297891378386,0.007714710105210469,0.29666721377521754,0.009216993078589473,-0.23408162957988682,normal,2017-05-23  09:12:59.885+0000,5.0,6.0,888.7177734375,77.6390923932918,12.953129215178,1495530790.905,normal,114,114,normal
7.920000171661392,-0.0257925409823656,-0.0281298570334911,0.272167444229126,1.45251930459462,-0.540878352001629,1.08862560374118,0.338742285966873,0.0729999989271164,-0.0888601690530777,-0.03566436979919655,0.006769783701747583,0.2934868297353387,0.010266373865306412,-0.22554938948713246,normal,2017-05-23  09:12:59.885+0000,5.0,6.0,888.7177734375,77.6390923932918,12.953129215178,1495530791.002,normal,115,115,normal
7.920000171661392,-0.213408708572388,-0.38130795955658,0.507738471031189,1.446239086937,-0.809291140341239,1.32596474447281,0.246446028351784,-0.151927530765533,0.00650025485083461,-0.041975074298679665,0.007455861177295364,0.2869212782755494,0.008699703626334711,-0.2180960948765278,normal,2017-05-23  09:12:59.885+0000,5.0,6.0,888.7177734375,77.6390923932918,12.953129215178,1495530791.102,normal,116,116,normal
7.920000171661392,-0.991208672523499,-0.174914076924324,0.237662643194199,1.39282378073428,-0.680168395629591,1.15999640346822,0.0481240786612034,-0.268725037574768,0.174137473106384,-0.051005716808140124,0.004747629147022881,0.2777953375503421,0.00627478700131183,-0.2117914985120297,normal,2017-05-23  09:12:59.885+0000,5.0,6.0,888.7177734375,77.6390923932918,12.953129215178,1495530791.189,normal,117,117,normal
9.935999965667737,-0.279120683670044,-0.061977282166481,-0.196250140666962,1.34395080684126,-0.510293582990944,0.972313128565338,-0.036282304674387,-0.347335606813431,-0.117300510406494,-0.05259996015578492,-0.0011068830080331194,0.2709262299910188,-0.00019748795777554612,-0.21142297163605694,normal,2017-05-23  09:12:59.885+0000,5.0,6.0,885.964477539062,77.639111504031,12.9531044885637,1495530791.278,normal,118,118,normal
9.935999965667737,0.735738337039948,-0.289565026760101,-0.616912007331848,1.38774247946854,-0.471003319544613,0.925753950051332,0.0467449985444546,0.120804585516453,-0.291324704885483,-0.042181671746074983,-0.01390290411189206,0.2656870901212096,-0.0006632528081535863,-0.20859919980168345,normal,2017-05-23  09:12:59.885+0000,5.0,6.0,885.964477539062,77.639111504031,12.9531044885637,1495530791.376,normal,119,119,normal
9.935999965667737,0.466345876455307,-0.217671155929565,-0.272855371236801,1.44434961541968,-0.449415810012311,0.884332756785072,0.0436177328228951,0.261700093746185,0.0846872851252556,-0.030659732110798185,-0.018282850626856154,0.25700204622000455,0.0007854303345084545,-0.19811977714300158,normal,2017-05-23  09:12:59.885+0000,5.0,6.0,885.964477539062,77.639111504031,12.9531044885637,1495530791.463,normal,120,120,normal
9.935999965667737,0.372889429330826,-0.175544589757919,0.178170591592789,1.48082169655495,-0.580837219321642,0.991468031325305,0.146655723452568,0.0344224199652672,-0.0329755991697311,-0.026589723415672607,-0.014811074975878058,0.24734653811901808,0.003061543516814745,-0.19163284122943883,normal,2017-05-23  09:12:59.885+0000,5.0,6.0,885.964477539062,77.639111504031,12.9531044885637,1495530791.562,normal,121,121,normal
9.935999965667737,-0.00686606159433722,-0.101994797587395,0.379433959722519,1.48577546409652,-0.923335493001766,1.31146591878219,0.100554145872593,-0.0852923914790154,-0.00557352788746357,-0.028584028398617928,-0.020704985205084157,0.23797758039087058,0.002428517304360901,-0.19181955997832123,normal,2017-05-23  09:12:59.885+0000,5.0,6.0,885.964477539062,77.639111504031,12.9531044885637,1495530791.66,normal,122,122,normal
9.935999965667737,-0.146976605057716,-0.0959553197026253,0.0880003795027733,1.46587573030948,-0.929597729280741,1.29756784474485,-0.01568235270679,-0.159368753433228,-0.0638515129685402,-0.036032084142789064,-0.0386329681612552,0.23073220998048782,-5.098823457953747e-05,-0.19006370504386727,normal,2017-05-23  09:12:59.885+0000,5.0,6.0,885.964477539062,77.639111504031,12.9531044885637,1495530791.747,normal,123,123,normal
9.935999965667737,0.248687028884888,-0.134092748165131,0.0181962214410305,1.4649892313784,-0.964743961293668,1.32577448095491,0.0619139261543751,-0.163398742675781,-0.122977763414383,-0.029595266496762453,-0.04959850141778596,0.22713499702513218,-0.009367011822760079,-0.1879825152922422,normal,2017-05-23  09:12:59.885+0000,5.0,6.0,885.964477539062,77.639111504031,12.9531044885637,1495530791.834,normal,124,124,normal
9.935999965667737,0.246155306696892,-0.132891073822975,0.0169440358877182,1.42640519565434,-0.611878231489308,0.978107323018861,0.0282841604202986,0.101318553090096,-0.00102087121922523,-0.01890252432785909,-0.06717649558559069,0.21462596748024226,-0.0008596465364098183,-0.18171820824267346,normal,2017-05-23  09:12:59.885+0000,5.0,6.0,885.964477539062,77.639111504031,12.9531044885637,1495530791.933,normal,125,125,normal
9.935999965667737,0.390340209007263,0.21818882226944,-0.17438767850399,1.44909479276674,-0.665186018351923,1.02416672949976,-0.0567385219037533,0.13957616686821,0.0981280580163002,-0.012977613126858882,-0.06582960287109024,0.20733651261776687,0.0032818784937262936,-0.16571707596303897,normal,2017-05-23  09:12:59.885+0000,5.0,6.0,885.964477539062,77.639111504031,12.9531044885637,1495530792.02,normal,126,126,normal
9.935999965667737,0.343145787715912,-0.00308102346025407,-0.113650642335415,1.47884977411705,-0.592908689434189,0.947470226998119,0.0171712189912796,0.0852992087602615,-0.0135150291025639,-0.012034182464703723,-0.07102107325103141,0.19971853863447905,0.002654579095542463,-0.15813795802416283,normal,2017-05-23  09:12:59.885+0000,5.0,6.0,885.964477539062,77.639111504031,12.9531044885637,1495530792.119,normal,127,127,normal
12.959999656677253,-0.142492964863777,-0.302277356386185,0.056500505656004,1.48913182440552,-0.558911619142321,0.907929597612403,0.023190300911665,-0.0500093288719654,0.0151600511744618,-0.0053340663667766205,-0.0772758141858504,0.19302535507827998,-0.001492761634290185,-0.1525071829860099,normal,2017-05-23  09:12:59.885+0000,5.0,6.0,886.182861328125,77.639132626427,12.9530805163206,1495530792.208,normal,128,128,normal
12.959999656677253,-0.0755196437239647,-0.17394982278347,-0.0888421237468719,1.48026792893199,-0.479881517824618,0.807753335776041,0.0172929707914591,-0.103917896747589,0.00342657300643623,-0.008974516456946535,-0.08187786571215845,0.1837029030174017,-0.001508590094745125,-0.14196635862579574,normal,2017-05-23  09:12:59.885+0000,5.0,6.0,886.182861328125,77.639132626427,12.9530805163206,1495530792.306,normal,129,129,normal
12.959999656677253,0.057790819555521,-0.0186960455030203,-0.00802824459969997,1.47788074270852,-0.310576869229385,0.623432330132843,0.0122721372172236,-0.10525044053793,0.0610755644738674,-0.011269797375425494,-0.0816366637079046,0.17381940303370358,-0.0026233081147074453,-0.13287566391518343,normal,2017-05-23  09:12:59.885+0000,5.0,6.0,886.182861328125,77.639132626427,12.9530805163206,1495530792.393,normal,130,130,normal
12.959999656677253,-0.0212363433092833,-0.198175862431526,0.00231498992070556,1.46468900013739,-0.264315709095378,0.561465103579176,-0.0283160712569952,0.0144259463995695,0.0713312476873398,-0.019317507697269122,-0.09071101817768072,0.16159742312505843,6.875663995744435e-05,-0.12442910967161881,normal,2017-05-23  09:12:59.885+0000,5.0,6.0,886.182861328125,77.639132626427,12.9530805163206,1495530792.492,normal,131,131,normal
12.959999656677253,0.0535972900688648,-0.232849821448326,0.13273723423481,1.47766815301941,-0.297672672823796,0.576392247806605,0.0243449714034796,-0.0212247744202614,0.037710677832365,-0.023047494767233525,-0.10041561666410423,0.15552791653200984,-7.401892915366564e-05,-0.11909083967795597,normal,2017-05-23  09:12:59.885+0000,5.0,6.0,886.182861328125,77.639132626427,12.9530805163206,1495530792.578,normal,132,132,normal
12.959999656677253,-0.0136309638619423,-0.165466889739037,0.110414862632751,1.47573694920168,-0.417395477374787,0.679715496588996,-0.0391747318208218,-0.0300884712487459,0.0565398521721363,-0.021931321350857413,-0.10633437189739205,0.1530196418426931,-0.003287726473063224,-0.11435076383640991,normal,2017-05-23  09:12:59.885+0000,5.0,6.0,886.182861328125,77.639132626427,12.9530805163206,1495530792.676,normal,133,133,normal
12.959999656677253,0.096708782017231,-0.19529315829277,0.00604484649375081,1.48354920651872,-0.538210587500091,0.780956565547101,-0.0676385015249252,-0.0239147003740072,0.0994454398751259,-0.022666866658255253,-0.1071871784655378,0.14518816879019142,-0.004985297713428728,-0.10177116228034722,normal,2017-05-23  09:12:59.885+0000,5.0,6.0,886.182861328125,77.639132626427,12.9530805163206,1495530792.764,normal,134,134,normal
12.959999656677253,0.115874230861664,-0.147177487611771,0.190339133143425,1.48414167252041,-0.700276187338219,0.921676715175231,0.0486470498144627,-0.0257705990225077,-0.0166611466556787,-0.013595438478514353,-0.10878408986609436,0.13348747907206415,-0.007131786625832312,-0.09593732686480509,normal,2017-05-23  09:12:59.885+0000,5.0,6.0,886.182861328125,77.639132626427,12.9530805163206,1495530792.863,normal,135,135,normal
12.959999656677253,0.14062862098217,-0.022115470841527,0.0929281413555145,1.47070398215327,-0.84616372870621,1.05465093969499,-0.0219528712332249,0.0492094196379185,0.183912307024002,-0.001601883349939992,-0.11233965329360224,0.12373763909563422,-0.0038151480816304628,-0.08758369536837565,normal,2017-05-23  09:12:59.885+0000,5.0,6.0,886.182861328125,77.639132626427,12.9530805163206,1495530792.962,normal,136,136,normal
12.959999656677253,-0.421671181917191,-0.142984285950661,-0.0299697369337082,1.44821906289431,-0.791512105634202,0.982968753734732,-0.0304768513888121,0.0650676116347313,0.163686901330948,-0.004394627390429192,-0.11486962511669851,0.12030620926991106,-0.004197875764220947,-0.07708925934275615,normal,2017-05-23  09:12:59.885+0000,5.0,6.0,886.182861328125,77.639132626427,12.9530805163206,1495530793.049,normal,137,137,normal
12.959999656677253,-0.325746774673462,-0.0387629196047783,-0.0609128400683403,1.42079117378806,-0.605665743434911,0.787177022531621,0.0349390730261803,-0.0413200259208679,0.104229770600796,-0.013614137647673314,-0.10977181672584273,0.11101232746616008,-0.0013499226234853245,-0.06730715142330157,normal,2017-05-23  09:12:59.885+0000,5.0,6.0,886.182861328125,77.639132626427,12.9530805163206,1495530793.136,normal,138,138,normal
19.00800075531006,-0.363970547914505,0.132873713970184,0.134121268987656,1.38513517864459,-0.506793663851317,0.688411842519269,0.0810690596699715,-0.072407141327858,0.0622419603168964,-0.023643732247873975,-0.11019709497224546,0.10474340314045551,-0.005681551005691284,-0.05768951842328535,normal,2017-05-23  09:12:59.885+0000,5.0,4.0,885.9677734375,77.6391625498213,12.9530410794662,1495530793.233,normal,139,139,normal
19.00800075531006,-0.279898077249527,0.154410481452942,0.0812444090843201,1.36467698874293,-0.500573373742239,0.688620680628583,0.0937070026993752,-0.0622288919985294,-0.0933205932378769,-0.026939146099611958,-0.09980518787633635,0.0985437614656985,-0.012700849752873174,-0.049534808786120293,normal,2017-05-23  09:12:59.885+0000,5.0,4.0,885.9677734375,77.6391625498213,12.9530410794662,1495530793.322,normal,140,140,normal
19.00800075531006,0.066708154976368,0.15936641395092,0.0864040106534958,1.35651522178889,-0.474507435626338,0.676250025034473,0.070836178958416,-0.0828375220298767,-0.0270654838532209,-0.02080736312083884,-0.09004022895824171,0.08957702571526172,-0.011898512225598089,-0.04569294487824667,normal,2017-05-23  09:12:59.885+0000,5.0,4.0,885.9677734375,77.6391625498213,12.9530410794662,1495530793.42,normal,141,141,normal
19.00800075531006,0.3199642598629,0.277994304895401,0.103441312909126,1.36607998105796,-0.49901878624729,0.722735418360533,0.0519226677715778,0.00280032842420042,0.0506759323179722,-0.01756816986016912,-0.07858738183509566,0.08357907624915244,-0.01023916738573461,-0.03599350897362459,normal,2017-05-23  09:12:59.885+0000,5.0,4.0,885.9677734375,77.6391625498213,12.9530410794662,1495530793.507,normal,142,142,normal
19.00800075531006,-0.0169213507324457,0.0996309667825699,0.192202091217041,1.36407313299273,-0.428729616818395,0.66830013065768,0.00842300709336996,0.0527138710021973,0.0941328182816505,-0.026987393712624735,-0.06783811956178404,0.07734849318861964,-0.009763621152378608,-0.024273871311452276,normal,2017-05-23  09:12:59.885+0000,5.0,4.0,885.9677734375,77.6391625498213,12.9530410794662,1495530793.604,normal,143,143,normal
19.00800075531006,0.128511309623718,0.0531804673373699,0.107533574104309,1.36594680244655,-0.41724840800403,0.659852694609115,0.060218371450901,0.0385551080107689,-0.0264496710151434,-0.02904752305708809,-0.05787559695076205,0.07195993542671206,-0.010216208607889701,-0.01910211616894234,normal,2017-05-23  09:12:59.885+0000,5.0,4.0,885.9677734375,77.6391625498213,12.9530410794662,1495530793.691,normal,144,144,normal
19.00800075531006,0.159239023923874,-0.11632028222084,-0.000232112550293095,1.38711342371961,-0.485818708167133,0.724607903766453,0.0222519803792238,0.00893450900912285,0.0380130223929882,-0.025691480906680057,-0.05107831306289889,0.06896012488752606,-0.010638464638032008,-0.017221962304320226,normal,2017-05-23  09:12:59.885+0000,5.0,4.0,885.9677734375,77.6391625498213,12.9530410794662,1495530793.789,normal,145,145,normal
19.00800075531006,-0.204553246498108,0.0701274797320366,-0.121322356164455,1.37947701799996,-0.490554293784278,0.725944655002061,0.00468461774289608,-0.00184258434455842,0.135579481720924,-0.025863844128325417,-0.048021882246248496,0.06745622932910922,-0.009342066815588612,-0.012202912361826787,Hard Acceleration,2017-05-23  09:12:59.885+0000,5.0,4.0,885.9677734375,77.6391625498213,12.9530410794662,1495530793.878,Hard Acceleration,146,146,matched
19.00800075531006,-0.444889485836029,-0.021037045866251,-0.180220767855644,1.35649060200557,-0.372515272276631,0.605071714931687,0.049876045435667,-0.0927151963114738,0.0611660294234753,-0.03986642536707206,-0.04078136696945884,0.06739739403128626,-0.011331985334400076,-0.006157637403812302,Hard Acceleration,2017-05-23  09:12:59.885+0000,5.0,4.0,885.9677734375,77.6391625498213,12.9530410794662,1495530793.975,Hard Acceleration,147,147,matched
19.00800075531006,-0.268493294715881,-0.0629817843437195,0.252688854932785,1.33600755817432,-0.350704838367995,0.576660725029676,0.16479429602623,-0.180588960647583,-0.0262586269527674,-0.045772605920210305,-0.03400060966145255,0.0687114575505257,-0.017305156628135577,-0.0049184822081588635,Hard Acceleration,2017-05-23  09:12:59.885+0000,5.0,4.0,885.9677734375,77.6391625498213,12.9530410794662,1495530794.061,Hard Acceleration,148,148,matched
19.00800075531006,0.0476925186812878,-0.0273068938404322,0.198653027415276,1.32211930935266,-0.391817111539467,0.635179949358282,0.245368629693985,0.0320288017392159,-0.287468403577805,-0.051198352137580325,-0.02751136574428535,0.06677407294511797,-0.014180914650205498,-0.006757825219538122,Hard Acceleration,2017-05-23  09:12:59.885+0000,5.0,4.0,885.9677734375,77.6391625498213,12.9530410794662,1495530794.159,Hard Acceleration,149,149,matched
